[
    {
        "name": "Ballard Food Bank",
        "donationNotes": "We accept packaged foods and canned goods.",
        "donationHours": [
            {
                "day": "Monday",
                "hours": "1:00PM to 3:00PM"
            },
            {
                "day": "Tuesday",
                "hours": "1:00PM to 3:00PM"
            },
            {
                "day": "Wednesday",
                "hours": "1:00PM to 3:00PM"
            }
        ]
    },
    {
        "name": "Pike Food Bank",
        "donationNotes": "We take any food handled by food service professionals.",
        "donationHours": [
            {
                "day": "Thursday",
                "hours": "9:00AM to 5:00PM"
            },
            {
                "day": "Friday",
                "hours": "9:00AM to 5:00PM"
            },
            {
                "day": "Saturday",
                "hours": "9:00AM to 5:00PM"
            }
        ]
    },
    {
        "name": "Downtown Food Bank ",
        "donationNotes": "Please call ahead before donations, as our supply is constantly changing",
        "donationHours": [
            {
                "day": "Saturday",
                "hours": "10:00AM to 5:30PM"
            },
            {
                "day": "Sunday",
                "hours": "10:00AM to 5:30PM"
            }
        ]
    },
    {
        "name": "Northwest Harvest",
        "donationNotes": "We accept packaged foods and canned goods.",
        "donationHours": [
            {
                "day": "Thursday",
                "hours": "11:00AM to 1:00PM"
            },
            {
                "day": "Friday",
                "hours": "11:00AM to 1:00PM"
            },
            {
                "day": "Saturday",
                "hours": "11:00AM to 1:00PM"
            }
        ]
    }
]